{"type":"FeatureCollection","features":[{"type":"Feature","properties":{"FID":0,"NAME":"Aaragyodham Homiopathy Hospital","EMERGENCY":"no","NO_OF_BEDS":10,"AMBULANCE":"no","NO_OF_DOCT":"4 doctor 8 nurses","NICU_ICU":"no","STAFFS_COM":10,"CONTACT_NU":"61-430242, 432242, 9846068806","EMAIL":"arogya2069@gmail.com","WEBSITE":"www.arogyadhamhomeopaticospital.com","Rekarks":" ","X_RAy":" ","OT":" ","Ventilator":" "},"geometry":{"type":"Point","coordinates":[83.99341,28.2059]}},{"type":"Feature","properties":{"FID":1,"NAME":"AB Care and Rehabilitation Center","EMERGENCY":"no","NO_OF_BEDS":15,"AMBULANCE":"no","NO_OF_DOCT":5,"NICU_ICU":"physiotherapy, occupational therapy","STAFFS_COM":12,"CONTACT_NU":"61-412230","EMAIL":"abcrehabilitation@gmail.com","WEBSITE":"http://www.abcrehabilitation.com/","Rekarks":" ","X_RAy":" ","OT":" ","Ventilator":" "},"geometry":{"type":"Point","coordinates":[83.98274,28.23847]}},{"type":"Feature","properties":{"FID":2,"NAME":"BG Hospital and Research Center","EMERGENCY":"yes","NO_OF_BEDS":15,"AMBULANCE":"no","NO_OF_DOCT":"3 doctors 25 nureses","NICU_ICU":"high care","STAFFS_COM":50,"CONTACT_NU":"61-538975,1166061525111","EMAIL":"bghospital2069@gmail.com","WEBSITE":"http://bghospital.com/","Rekarks":" ","X_RAy":" ","OT":" ","Ventilator":" "},"geometry":{"type":"Point","coordinates":[84.0034,28.21568]}},{"type":"Feature","properties":{"FID":3,"NAME":"Charak Memorial Hospital","EMERGENCY":"yes","NO_OF_BEDS":" ","AMBULANCE":"yes","NO_OF_DOCT":" ","NICU_ICU":"both","STAFFS_COM":" ","CONTACT_NU":"61-532779, 535999","EMAIL":"charak.memorial@gmail.com","WEBSITE":" ","Rekarks":" ","X_RAy":"yes","OT":" ","Ventilator":" "},"geometry":{"type":"Point","coordinates":[83.98609,28.21078]}},{"type":"Feature","properties":{"FID":4,"NAME":"CIWEC Hospital and Research Centre","EMERGENCY":"yes","NO_OF_BEDS":"-","AMBULANCE":"yes","NO_OF_DOCT":"-","NICU_ICU":"-","STAFFS_COM":"-","CONTACT_NU":"61-463082,267053,","EMAIL":"pkradministrator@ciwec-clinic.com","WEBSITE":" ","Rekarks":" ","X_RAy":"yes","OT":" ","Ventilator":" "},"geometry":{"type":"Point","coordinates":[83.95902,28.20924]}},{"type":"Feature","properties":{"FID":5,"NAME":"Family Homiopathy Hospital","EMERGENCY":"no","NO_OF_BEDS":10,"AMBULANCE":"no","NO_OF_DOCT":"1 doctor","NICU_ICU":"no","STAFFS_COM":9,"CONTACT_NU":"61-432604, 9856022607","EMAIL":"familyhospital@gmail.com","WEBSITE":" ","Rekarks":" ","X_RAy":"yes","OT":"yes","Ventilator":" "},"geometry":{"type":"Point","coordinates":[83.99343,28.20615]}},{"type":"Feature","properties":{"FID":6,"NAME":"Fewa City Hospital","EMERGENCY":"yes","NO_OF_BEDS":" ","AMBULANCE":"yes","NO_OF_DOCT":" ","NICU_ICU":"both","STAFFS_COM":" ","CONTACT_NU":"61-532685, 532686","EMAIL":" ","WEBSITE":"www.geocities.com/fewacity","Rekarks":" ","X_RAy":"yes","OT":"yes","Ventilator":"yes"},"geometry":{"type":"Point","coordinates":[83.98169,28.20666]}},{"type":"Feature","properties":{"FID":7,"NAME":"Fishtail Hospital And Research Centre","EMERGENCY":"yes","NO_OF_BEDS":100,"AMBULANCE":1,"NO_OF_DOCT":"36 doctors","NICU_ICU":"both","STAFFS_COM":"100 including nurses","CONTACT_NU":"61-528999, 527553","EMAIL":"hospitalfishtail@gmail.com","WEBSITE":"www.fishtailhospital.com.np","Rekarks":" ","X_RAy":"yes","OT":"yes","Ventilator":"yes"},"geometry":{"type":"Point","coordinates":[83.99002,28.2259]}},{"type":"Feature","properties":{"FID":8,"NAME":"Gandaki Medical college","EMERGENCY":"yes","NO_OF_BEDS":"547 gen icu 20 nicu 15 pisu 5 ncu 10 sicu 9","AMBULANCE":"yes 2 (1and only icu ambulance in pkr valley)","NO_OF_DOCT":"98 doctors 320 nurse","NICU_ICU":"both","STAFFS_COM":424,"CONTACT_NU":"61-538595, 538598","EMAIL":"ceo@gmc.edu.np","WEBSITE":"www.gmc.edu.np","Rekarks":" ","X_RAy":"yes","OT":" ","Ventilator":" "},"geometry":{"type":"Point","coordinates":[83.9871,28.2111]}},{"type":"Feature","properties":{"FID":9,"NAME":"Hariyo Kharka Hospital","EMERGENCY":"no","NO_OF_BEDS":66,"AMBULANCE":"no","NO_OF_DOCT":"10 doctor 12 nrse","NICU_ICU":"no","STAFFS_COM":89,"CONTACT_NU":"61-520342","EMAIL":"clinical.pmelo@kaski.nepal.inf.org","WEBSITE":"www.inf.org","Rekarks":" ","X_RAy":" ","OT":" ","Ventilator":" "},"geometry":{"type":"Point","coordinates":[83.9887,28.19276]}},{"type":"Feature","properties":{"FID":10,"NAME":"Hemja Hospital and Research Center","EMERGENCY":"yes","NO_OF_BEDS":25,"AMBULANCE":"no","NO_OF_DOCT":"12 doctors 7 nurses","NICU_ICU":"no","STAFFS_COM":7,"CONTACT_NU":"061-400055","EMAIL":" ","WEBSITE":" ","Rekarks":" ","X_RAy":" ","OT":" ","Ventilator":" "},"geometry":{"type":"Point","coordinates":[83.9343,28.2776]}},{"type":"Feature","properties":{"FID":11,"NAME":"Himalaya Eye Hospital","EMERGENCY":"yes","NO_OF_BEDS":51,"AMBULANCE":"no","NO_OF_DOCT":"5 doctors 25 opthomist","NICU_ICU":"no","STAFFS_COM":70,"CONTACT_NU":"(061)-461168, 460458, 463156","EMAIL":"heh@ntc.net.np","WEBSITE":"http://www.heh.org.np","Rekarks":" ","X_RAy":" ","OT":" ","Ventilator":" "},"geometry":{"type":"Point","coordinates":[83.97736,28.19044]}},{"type":"Feature","properties":{"FID":12,"NAME":"Kantipur Institute of Health Science","EMERGENCY":"no","NO_OF_BEDS":"dental chair 20","AMBULANCE":"no","NO_OF_DOCT":"Dental Hygiene 6 and Chairside 3","NICU_ICU":"no","STAFFS_COM":10,"CONTACT_NU":"61-538364 / 530725","EMAIL":"kdhpkr@hotmail.com","WEBSITE":"kantipurkdh.edu.np","Rekarks":" ","X_RAy":"yes","OT":" ","Ventilator":" "},"geometry":{"type":"Point","coordinates":[83.98487,28.21343]}},{"type":"Feature","properties":{"FID":13,"NAME":"Kaski Sewa Hospital And Research Center PVT. LTD","EMERGENCY":"yes","NO_OF_BEDS":100,"AMBULANCE":"yes 1","NO_OF_DOCT":"27 doctor 50 nurse","NICU_ICU":"both","STAFFS_COM":73,"CONTACT_NU":"61-528161/528162","EMAIL":"info@kaskisewahospital.com","WEBSITE":"www.kaskisewahospital.com","Rekarks":" ","X_RAy":"yes","OT":" ","Ventilator":" "},"geometry":{"type":"Point","coordinates":[84.00081,28.2132]}},{"type":"Feature","properties":{"FID":14,"NAME":"Lakecity Hospital & Critical Care","EMERGENCY":"yes","NO_OF_BEDS":29,"AMBULANCE":3,"NO_OF_DOCT":"30 doctors 66 nurses","NICU_ICU":"ICU, PICU","STAFFS_COM":25,"CONTACT_NU":"61-533303,441000","EMAIL":"info@lakecityhospital.org","WEBSITE":"http://www.lakecityhospital.org/","Rekarks":"dialysis centre, Pain relief clinic, Fistula","X_RAy":"yes","OT":"yes(2)","Ventilator":"yes(3)"},"geometry":{"type":"Point","coordinates":[83.98373,28.2208]}},{"type":"Feature","properties":{"FID":15,"NAME":"Manipal Teaching Hospital","EMERGENCY":"yes","NO_OF_BEDS":750,"AMBULANCE":"yes(3)","NO_OF_DOCT":"183 doctors 208 nurses","NICU_ICU":"ICU,CCU, NICU","STAFFS_COM":"378 commuted staffs,85 admin staff","CONTACT_NU":"61-526416,526420","EMAIL":"mtc@manipal.edu.np","WEBSITE":"www.manipal.edu.np","Rekarks":" ","X_RAy":"yes","OT":" ","Ventilator":" "},"geometry":{"type":"Point","coordinates":[83.99719,28.23614]}},{"type":"Feature","properties":{"FID":16,"NAME":"Maternity Child Friendship Hospital","EMERGENCY":"yes","NO_OF_BEDS":25,"AMBULANCE":"yes","NO_OF_DOCT":" ","NICU_ICU":"no","STAFFS_COM":" ","CONTACT_NU":" ","EMAIL":" ","WEBSITE":" ","Rekarks":"maternity hospital","X_RAy":"yes","OT":"no","Ventilator":"no"},"geometry":{"type":"Point","coordinates":[83.98186,28.25808]}},{"type":"Feature","properties":{"FID":17,"NAME":"Metro City Hospital","EMERGENCY":"yes","NO_OF_BEDS":" ","AMBULANCE":"yes","NO_OF_DOCT":" ","NICU_ICU":"both","STAFFS_COM":" ","CONTACT_NU":"61-526531","EMAIL":"metrocityhospital@groups.facebook.com","WEBSITE":"http://www.metrocityhospital.com","Rekarks":" ","X_RAy":"yes","OT":" ","Ventilator":" "},"geometry":{"type":"Point","coordinates":[83.98168,28.21184]}},{"type":"Feature","properties":{"FID":18,"NAME":"Kaski Model Hospital","EMERGENCY":"yes","NO_OF_BEDS":37,"AMBULANCE":"yes 1","NO_OF_DOCT":"16 doctors 25 nurses","NICU_ICU":"icu only","STAFFS_COM":25,"CONTACT_NU":"061-527542,539803","EMAIL":"modelhospital@yahoo.com","WEBSITE":" ","Rekarks":" ","X_RAy":"yes","OT":"yes (major minor)","Ventilator":" "},"geometry":{"type":"Point","coordinates":[83.98671,28.22136]}},{"type":"Feature","properties":{"FID":19,"NAME":"Namaste Hospital and Research Center","EMERGENCY":"yes","NO_OF_BEDS":60,"AMBULANCE":"yes","NO_OF_DOCT":"25 doctor 55 nurses","NICU_ICU":"both","STAFFS_COM":15,"CONTACT_NU":"061-466438,466439","EMAIL":"namastehospital@gmail.com","WEBSITE":"http://www.namastehospital.com/","Rekarks":" ","X_RAy":"yes","OT":" ","Ventilator":" "},"geometry":{"type":"Point","coordinates":[83.97199,28.19324]}},{"type":"Feature","properties":{"FID":20,"NAME":"OM Hospital","EMERGENCY":"yes","NO_OF_BEDS":51,"AMBULANCE":1,"NO_OF_DOCT":"20 doctors, 23 nurses","NICU_ICU":"no","STAFFS_COM":13,"CONTACT_NU":"61-534566,534577,534007","EMAIL":"omhosnet.wlink.com","WEBSITE":" ","Rekarks":" ","X_RAy":"yes","OT":"2(major+minor)","Ventilator":0},"geometry":{"type":"Point","coordinates":[83.98995,28.2228]}},{"type":"Feature","properties":{"FID":21,"NAME":"Padhma Nursing Homes","EMERGENCY":"yes","NO_OF_BEDS":50,"AMBULANCE":"yes 1","NO_OF_DOCT":"13 doctors 30 nurses","NICU_ICU":"no","STAFFS_COM":40,"CONTACT_NU":"61-520159,523048","EMAIL":"padmanurshing@gmail.com","WEBSITE":"no website","Rekarks":" ","X_RAy":" ","OT":" ","Ventilator":" "},"geometry":{"type":"Point","coordinates":[83.98657,28.21962]}},{"type":"Feature","properties":{"FID":22,"NAME":"Parkland Hospital Pvt. Ltd.","EMERGENCY":"yes","NO_OF_BEDS":26,"AMBULANCE":"yes","NO_OF_DOCT":"15 doctor 30nurse","NICU_ICU":"both icu 8bed nicu 10 bed","STAFFS_COM":12,"CONTACT_NU":"61-431830,431930","EMAIL":"parklandhospital@gmail.com","WEBSITE":"www.parklandhospitalpkr.com","Rekarks":" ","X_RAy":"yes","OT":" ","Ventilator":" "},"geometry":{"type":"Point","coordinates":[84.00135,28.20436]}},{"type":"Feature","properties":{"FID":23,"NAME":"Pashchimanchal Community Hospital/shahid Memorial Hospital","EMERGENCY":"yes","NO_OF_BEDS":50,"AMBULANCE":"yes","NO_OF_DOCT":"15 doctor 35 nurse","NICU_ICU":"both","STAFFS_COM":16,"CONTACT_NU":"061-530722","EMAIL":"pchospital2071@gmail.com","WEBSITE":"www.pch.com","Rekarks":" ","X_RAy":"yes","OT":" ","Ventilator":" "},"geometry":{"type":"Point","coordinates":[83.98825,28.20885]}},{"type":"Feature","properties":{"FID":24,"NAME":"Pokhara Hospital and Research Centre","EMERGENCY":"yes","NO_OF_BEDS":25,"AMBULANCE":"no","NO_OF_DOCT":"22 doctor 8 nurses","NICU_ICU":"no","STAFFS_COM":18,"CONTACT_NU":"61-521924,528243","EMAIL":"pkrhospital552gmail.com","WEBSITE":"no website","Rekarks":" ","X_RAy":" ","OT":" ","Ventilator":" "},"geometry":{"type":"Point","coordinates":[83.99232,28.20702]}},{"type":"Feature","properties":{"FID":25,"NAME":"Regional Hospital Pvt. Ltd.","EMERGENCY":"yes","NO_OF_BEDS":34,"AMBULANCE":"in process","NO_OF_DOCT":"15 doctors 13 nurses","NICU_ICU":"icu(4)","STAFFS_COM":29,"CONTACT_NU":"061-53323","EMAIL":"regionalhospital0@gmail.com","WEBSITE":" ","Rekarks":" ","X_RAy":"yes","OT":"yes(2)","Ventilator":"yes(2)"},"geometry":{"type":"Point","coordinates":[83.97537,28.21418]}},{"type":"Feature","properties":{"FID":26,"NAME":"Sahara Hospital","EMERGENCY":"yes","NO_OF_BEDS":55,"AMBULANCE":"yes(1)","NO_OF_DOCT":"22 doctors 16 nurses","NICU_ICU":"no","STAFFS_COM":7,"CONTACT_NU":"61-539858","EMAIL":" ","WEBSITE":" ","Rekarks":" ","X_RAy":" ","OT":" ","Ventilator":" "},"geometry":{"type":"Point","coordinates":[83.98321,28.23143]}},{"type":"Feature","properties":{"FID":27,"NAME":"Sai Archana Hospital","EMERGENCY":"no","NO_OF_BEDS":25,"AMBULANCE":"no","NO_OF_DOCT":"5 doctors 11 nurses","NICU_ICU":"no","STAFFS_COM":9,"CONTACT_NU":"61-541587","EMAIL":" ","WEBSITE":" ","Rekarks":" ","X_RAy":" ","OT":" ","Ventilator":" "},"geometry":{"type":"Point","coordinates":[83.99795,28.21896]}},{"type":"Feature","properties":{"FID":28,"NAME":"Spark Hospital (sabhagriha)","EMERGENCY":"no","NO_OF_BEDS":15,"AMBULANCE":"no","NO_OF_DOCT":"3 doctors 6 nurses","NICU_ICU":"no","STAFFS_COM":14,"CONTACT_NU":"61-521408","EMAIL":" ","WEBSITE":"www.sparkhealth.com.np","Rekarks":" ","X_RAy":" ","OT":" ","Ventilator":" "},"geometry":{"type":"Point","coordinates":[83.98335,28.21195]}},{"type":"Feature","properties":{"FID":29,"NAME":"Western Regional Hospital","EMERGENCY":"yes","NO_OF_BEDS":350,"AMBULANCE":"no","NO_OF_DOCT":"96 doctor 102 nurses","NICU_ICU":"both","STAFFS_COM":493,"CONTACT_NU":"61-520066,520461/532685","EMAIL":"wrhpkr@fewanet.com.np","WEBSITE":" ","Rekarks":" ","X_RAy":"yes","OT":"yes","Ventilator":"yes"},"geometry":{"type":"Point","coordinates":[83.99784,28.21268]}}]}