{"type":"FeatureCollection","features":[{"type":"Feature","properties":{"NAME":"Aaragyodham Homiopathy Hospital","EMERGENCY":"no","NO_OF_BEDS":10,"AMBULANCE":"no","NICU_ICU":"no","EMAIL":"arogya2069@gmail.com","WEBSITE":"www.arogyadhamhomeopaticospital.com","Rekarks":" ","X_RAy":" ","OT":" ","Ventilator":" ","Staffs":"4 doctor 8 nurses","Phone ":"61-430242, 432242, 9846068806","Other_Staffs":10},"geometry":{"type":"Point","coordinates":[83.99341,28.2059]}},{"type":"Feature","properties":{"NAME":"AB Care and Rehabilitation Center","EMERGENCY":"no","NO_OF_BEDS":15,"AMBULANCE":"no","NICU_ICU":"physiotherapy, occupational therapy","EMAIL":"abcrehabilitation@gmail.com","WEBSITE":"http://www.abcrehabilitation.com/","Rekarks":" ","X_RAy":" ","OT":" ","Ventilator":" ","Staffs":5,"Phone ":"61-412230","Other_Staffs":12},"geometry":{"type":"Point","coordinates":[83.98274,28.23847]}},{"type":"Feature","properties":{"NAME":"BG Hospital and Research Center","EMERGENCY":"yes","NO_OF_BEDS":15,"AMBULANCE":"no","NICU_ICU":"high care","EMAIL":"bghospital2069@gmail.com","WEBSITE":"http://bghospital.com/","Rekarks":" ","X_RAy":" ","OT":" ","Ventilator":" ","Staffs":"3 doctors 25 nureses","Phone ":"61-538975,1166061525111","Other_Staffs":50},"geometry":{"type":"Point","coordinates":[84.0034,28.21568]}},{"type":"Feature","properties":{"NAME":"Charak Memorial Hospital","EMERGENCY":"yes","NO_OF_BEDS":" ","AMBULANCE":"yes","NICU_ICU":"both","EMAIL":"charak.memorial@gmail.com","WEBSITE":" ","Rekarks":" ","X_RAy":"yes","OT":" ","Ventilator":" ","Staffs":" ","Phone ":"61-532779, 535999","Other_Staffs":" "},"geometry":{"type":"Point","coordinates":[83.98609,28.21078]}},{"type":"Feature","properties":{"NAME":"CIWEC Hospital and Research Centre","EMERGENCY":"yes","NO_OF_BEDS":"-","AMBULANCE":"yes","NICU_ICU":"-","EMAIL":"pkradministrator@ciwec-clinic.com","WEBSITE":" ","Rekarks":" ","X_RAy":"yes","OT":" ","Ventilator":" ","Staffs":"-","Phone ":"61-463082,267053,","Other_Staffs":"-"},"geometry":{"type":"Point","coordinates":[83.95902,28.20924]}},{"type":"Feature","properties":{"NAME":"Family Homiopathy Hospital","EMERGENCY":"no","NO_OF_BEDS":10,"AMBULANCE":"no","NICU_ICU":"no","EMAIL":"familyhospital@gmail.com","WEBSITE":" ","Rekarks":" ","X_RAy":"yes","OT":"yes","Ventilator":" ","Staffs":"1 doctor","Phone ":"61-432604, 9856022607","Other_Staffs":9},"geometry":{"type":"Point","coordinates":[83.99343,28.20615]}},{"type":"Feature","properties":{"NAME":"Fewa City Hospital","EMERGENCY":"yes","NO_OF_BEDS":" ","AMBULANCE":"yes","NICU_ICU":"both","EMAIL":" ","WEBSITE":"www.geocities.com/fewacity","Rekarks":" ","X_RAy":"yes","OT":"yes","Ventilator":"yes","Staffs":" ","Phone ":"61-532685, 532686","Other_Staffs":" "},"geometry":{"type":"Point","coordinates":[83.98169,28.20666]}},{"type":"Feature","properties":{"NAME":"Fishtail Hospital And Research Centre","EMERGENCY":"yes","NO_OF_BEDS":100,"AMBULANCE":1,"NICU_ICU":"both","EMAIL":"hospitalfishtail@gmail.com","WEBSITE":"www.fishtailhospital.com.np","Rekarks":" ","X_RAy":"yes","OT":"yes","Ventilator":"yes","Staffs":"36 doctors","Phone ":"61-528999, 527553","Other_Staffs":"100 including nurses"},"geometry":{"type":"Point","coordinates":[83.99002,28.2259]}},{"type":"Feature","properties":{"NAME":"Gandaki Medical college","EMERGENCY":"yes","NO_OF_BEDS":"547 gen icu 20 nicu 15 pisu 5 ncu 10 sicu 9","AMBULANCE":"yes 2 (1and only icu ambulance in pkr valley)","NICU_ICU":"both","EMAIL":"ceo@gmc.edu.np","WEBSITE":"www.gmc.edu.np","Rekarks":" ","X_RAy":"yes","OT":" ","Ventilator":" ","Staffs":"98 doctors 320 nurse","Phone ":"61-538595, 538598","Other_Staffs":424},"geometry":{"type":"Point","coordinates":[83.9871,28.2111]}},{"type":"Feature","properties":{"NAME":"Hariyo Kharka Hospital","EMERGENCY":"no","NO_OF_BEDS":66,"AMBULANCE":"no","NICU_ICU":"no","EMAIL":"clinical.pmelo@kaski.nepal.inf.org","WEBSITE":"www.inf.org","Rekarks":" ","X_RAy":" ","OT":" ","Ventilator":" ","Staffs":"10 doctor 12 nrse","Phone ":"61-520342","Other_Staffs":89},"geometry":{"type":"Point","coordinates":[83.9887,28.19276]}},{"type":"Feature","properties":{"NAME":"Hemja Hospital and Research Center","EMERGENCY":"yes","NO_OF_BEDS":25,"AMBULANCE":"no","NICU_ICU":"no","EMAIL":" ","WEBSITE":" ","Rekarks":" ","X_RAy":" ","OT":" ","Ventilator":" ","Staffs":"12 doctors 7 nurses","Phone ":"061-400055","Other_Staffs":7},"geometry":{"type":"Point","coordinates":[83.9343,28.2776]}},{"type":"Feature","properties":{"NAME":"Himalaya Eye Hospital","EMERGENCY":"yes","NO_OF_BEDS":51,"AMBULANCE":"no","NICU_ICU":"no","EMAIL":"heh@ntc.net.np","WEBSITE":"http://www.heh.org.np","Rekarks":" ","X_RAy":" ","OT":" ","Ventilator":" ","Staffs":"5 doctors 25 opthomist","Phone ":"(061)-461168, 460458, 463156","Other_Staffs":70},"geometry":{"type":"Point","coordinates":[83.97736,28.19044]}},{"type":"Feature","properties":{"NAME":"Kantipur Institute of Health Science","EMERGENCY":"no","NO_OF_BEDS":"dental chair 20","AMBULANCE":"no","NICU_ICU":"no","EMAIL":"kdhpkr@hotmail.com","WEBSITE":"kantipurkdh.edu.np","Rekarks":" ","X_RAy":"yes","OT":" ","Ventilator":" ","Staffs":"Dental Hygiene 6 and Chairside 3","Phone ":"61-538364 / 530725","Other_Staffs":10},"geometry":{"type":"Point","coordinates":[83.98487,28.21343]}},{"type":"Feature","properties":{"NAME":"Kaski Sewa Hospital And Research Center PVT. LTD","EMERGENCY":"yes","NO_OF_BEDS":100,"AMBULANCE":"yes 1","NICU_ICU":"both","EMAIL":"info@kaskisewahospital.com","WEBSITE":"www.kaskisewahospital.com","Rekarks":" ","X_RAy":"yes","OT":" ","Ventilator":" ","Staffs":"27 doctor 50 nurse","Phone ":"61-528161/528162","Other_Staffs":73},"geometry":{"type":"Point","coordinates":[84.00081,28.2132]}},{"type":"Feature","properties":{"NAME":"Lakecity Hospital & Critical Care","EMERGENCY":"yes","NO_OF_BEDS":29,"AMBULANCE":3,"NICU_ICU":"ICU, PICU","EMAIL":"info@lakecityhospital.org","WEBSITE":"http://www.lakecityhospital.org/","Rekarks":"dialysis centre, Pain relief clinic, Fistula","X_RAy":"yes","OT":"yes(2)","Ventilator":"yes(3)","Staffs":"30 doctors 66 nurses","Phone ":"61-533303,441000","Other_Staffs":25},"geometry":{"type":"Point","coordinates":[83.98373,28.2208]}},{"type":"Feature","properties":{"NAME":"Manipal Teaching Hospital","EMERGENCY":"yes","NO_OF_BEDS":750,"AMBULANCE":"yes(3)","NICU_ICU":"ICU,CCU, NICU","EMAIL":"mtc@manipal.edu.np","WEBSITE":"www.manipal.edu.np","Rekarks":" ","X_RAy":"yes","OT":" ","Ventilator":" ","Staffs":"183 doctors 208 nurses","Phone ":"61-526416,526420","Other_Staffs":"378 commuted staffs,85 admin staff"},"geometry":{"type":"Point","coordinates":[83.99719,28.23614]}},{"type":"Feature","properties":{"NAME":"Maternity Child Friendship Hospital","EMERGENCY":"yes","NO_OF_BEDS":25,"AMBULANCE":"yes","NICU_ICU":"no","EMAIL":" ","WEBSITE":" ","Rekarks":"maternity hospital","X_RAy":"yes","OT":"no","Ventilator":"no","Staffs":" ","Phone ":" ","Other_Staffs":" "},"geometry":{"type":"Point","coordinates":[83.98186,28.25808]}},{"type":"Feature","properties":{"NAME":"Metro City Hospital","EMERGENCY":"yes","NO_OF_BEDS":" ","AMBULANCE":"yes","NICU_ICU":"both","EMAIL":"metrocityhospital@groups.facebook.com","WEBSITE":"http://www.metrocityhospital.com","Rekarks":" ","X_RAy":"yes","OT":" ","Ventilator":" ","Staffs":" ","Phone ":"61-526531","Other_Staffs":" "},"geometry":{"type":"Point","coordinates":[83.98168,28.21184]}},{"type":"Feature","properties":{"NAME":"Kaski Model Hospital","EMERGENCY":"yes","NO_OF_BEDS":37,"AMBULANCE":"yes 1","NICU_ICU":"icu only","EMAIL":"modelhospital@yahoo.com","WEBSITE":" ","Rekarks":" ","X_RAy":"yes","OT":"yes (major minor)","Ventilator":" ","Staffs":"16 doctors 25 nurses","Phone ":"061-527542,539803","Other_Staffs":25},"geometry":{"type":"Point","coordinates":[83.98671,28.22136]}},{"type":"Feature","properties":{"NAME":"Namaste Hospital and Research Center","EMERGENCY":"yes","NO_OF_BEDS":60,"AMBULANCE":"yes","NICU_ICU":"both","EMAIL":"namastehospital@gmail.com","WEBSITE":"http://www.namastehospital.com/","Rekarks":" ","X_RAy":"yes","OT":" ","Ventilator":" ","Staffs":"25 doctor 55 nurses","Phone ":"061-466438,466439","Other_Staffs":15},"geometry":{"type":"Point","coordinates":[83.97199,28.19324]}},{"type":"Feature","properties":{"NAME":"OM Hospital","EMERGENCY":"yes","NO_OF_BEDS":51,"AMBULANCE":1,"NICU_ICU":"no","EMAIL":"omhosnet.wlink.com","WEBSITE":" ","Rekarks":" ","X_RAy":"yes","OT":"2(major+minor)","Ventilator":0,"Staffs":"20 doctors, 23 nurses","Phone ":"61-534566,534577,534007","Other_Staffs":13},"geometry":{"type":"Point","coordinates":[83.98995,28.2228]}},{"type":"Feature","properties":{"NAME":"Padhma Nursing Homes","EMERGENCY":"yes","NO_OF_BEDS":50,"AMBULANCE":"yes 1","NICU_ICU":"no","EMAIL":"padmanurshing@gmail.com","WEBSITE":"no website","Rekarks":" ","X_RAy":" ","OT":" ","Ventilator":" ","Staffs":"13 doctors 30 nurses","Phone ":"61-520159,523048","Other_Staffs":40},"geometry":{"type":"Point","coordinates":[83.98657,28.21962]}},{"type":"Feature","properties":{"NAME":"Parkland Hospital Pvt. Ltd.","EMERGENCY":"yes","NO_OF_BEDS":26,"AMBULANCE":"yes","NICU_ICU":"both icu 8bed nicu 10 bed","EMAIL":"parklandhospital@gmail.com","WEBSITE":"www.parklandhospitalpkr.com","Rekarks":" ","X_RAy":"yes","OT":" ","Ventilator":" ","Staffs":"15 doctor 30nurse","Phone ":"61-431830,431930","Other_Staffs":12},"geometry":{"type":"Point","coordinates":[84.00135,28.20436]}},{"type":"Feature","properties":{"NAME":"Pashchimanchal Community Hospital/shahid Memorial Hospital","EMERGENCY":"yes","NO_OF_BEDS":50,"AMBULANCE":"yes","NICU_ICU":"both","EMAIL":"pchospital2071@gmail.com","WEBSITE":"www.pch.com","Rekarks":" ","X_RAy":"yes","OT":" ","Ventilator":" ","Staffs":"15 doctor 35 nurse","Phone ":"061-530722","Other_Staffs":16},"geometry":{"type":"Point","coordinates":[83.98825,28.20885]}},{"type":"Feature","properties":{"NAME":"Pokhara Hospital and Research Centre","EMERGENCY":"yes","NO_OF_BEDS":25,"AMBULANCE":"no","NICU_ICU":"no","EMAIL":"pkrhospital552gmail.com","WEBSITE":"no website","Rekarks":" ","X_RAy":" ","OT":" ","Ventilator":" ","Staffs":"22 doctor 8 nurses","Phone ":"61-521924,528243","Other_Staffs":18},"geometry":{"type":"Point","coordinates":[83.99232,28.20702]}},{"type":"Feature","properties":{"NAME":"Regional Hospital Pvt. Ltd.","EMERGENCY":"yes","NO_OF_BEDS":34,"AMBULANCE":"in process","NICU_ICU":"icu(4)","EMAIL":"regionalhospital0@gmail.com","WEBSITE":" ","Rekarks":" ","X_RAy":"yes","OT":"yes(2)","Ventilator":"yes(2)","Staffs":"15 doctors 13 nurses","Phone ":"061-53323","Other_Staffs":29},"geometry":{"type":"Point","coordinates":[83.97537,28.21418]}},{"type":"Feature","properties":{"NAME":"Sahara Hospital","EMERGENCY":"yes","NO_OF_BEDS":55,"AMBULANCE":"yes(1)","NICU_ICU":"no","EMAIL":" ","WEBSITE":" ","Rekarks":" ","X_RAy":" ","OT":" ","Ventilator":" ","Staffs":"22 doctors 16 nurses","Phone ":"61-539858","Other_Staffs":7},"geometry":{"type":"Point","coordinates":[83.98321,28.23143]}},{"type":"Feature","properties":{"NAME":"Sai Archana Hospital","EMERGENCY":"no","NO_OF_BEDS":25,"AMBULANCE":"no","NICU_ICU":"no","EMAIL":" ","WEBSITE":" ","Rekarks":" ","X_RAy":" ","OT":" ","Ventilator":" ","Staffs":"5 doctors 11 nurses","Phone ":"61-541587","Other_Staffs":9},"geometry":{"type":"Point","coordinates":[83.99795,28.21896]}},{"type":"Feature","properties":{"NAME":"Spark Hospital (sabhagriha)","EMERGENCY":"no","NO_OF_BEDS":15,"AMBULANCE":"no","NICU_ICU":"no","EMAIL":" ","WEBSITE":"www.sparkhealth.com.np","Rekarks":" ","X_RAy":" ","OT":" ","Ventilator":" ","Staffs":"3 doctors 6 nurses","Phone ":"61-521408","Other_Staffs":14},"geometry":{"type":"Point","coordinates":[83.98335,28.21195]}},{"type":"Feature","properties":{"NAME":"Western Regional Hospital","EMERGENCY":"yes","NO_OF_BEDS":350,"AMBULANCE":"no","NICU_ICU":"both","EMAIL":"wrhpkr@fewanet.com.np","WEBSITE":" ","Rekarks":" ","X_RAy":"yes","OT":"yes","Ventilator":"yes","Staffs":"96 doctor 102 nurses","Phone ":"61-520066,520461/532685","Other_Staffs":493},"geometry":{"type":"Point","coordinates":[83.99784,28.21268]}}]}