{"type":"FeatureCollection","features":[{"type":"Feature","properties":{"Name":"Aaragyodham Homiopathy Hospital","Phone Number":"61-430242, 432242, 9846068806","Email":"arogya2069@gmail.com","Website":"www.arogyadhamhomeopaticospital.com","No of Beds":10,"Emergency Ward":"no","Ambulance Service":"no","ICU / NICU / Others":"no","Operation Theatre":" no","X-Ray":" ","Medical Staff":"4 doctor 8 nurses","Helping Staff":10,"Remarks":" "},"geometry":{"type":"Point","coordinates":[83.99341,28.2059]}},{"type":"Feature","properties":{"Name":"AB Care and Rehabilitation Center","Phone Number":"61-412230","Email":"abcrehabilitation@gmail.com","Website":"http://www.abcrehabilitation.com/","No of Beds":15,"Emergency Ward":"no","Ambulance Service":"no","ICU / NICU / Others":"physiotherapy, occupational therapy","Operation Theatre":" no","X-Ray":" ","Medical Staff":5,"Helping Staff":12,"Remarks":" "},"geometry":{"type":"Point","coordinates":[83.98274,28.23847]}},{"type":"Feature","properties":{"Name":"BG Hospital and Research Center","Phone Number":"61-538975,1166061525111","Email":"bghospital2069@gmail.com","Website":"http://bghospital.com/","No of Beds":15,"Emergency Ward":"yes","Ambulance Service":"no","ICU / NICU / Others":"high care","Operation Theatre":" no","X-Ray":" ","Medical Staff":"3 doctors 25 nureses","Helping Staff":50,"Remarks":" "},"geometry":{"type":"Point","coordinates":[84.0034,28.21568]}},{"type":"Feature","properties":{"Name":"Charak Memorial Hospital","Phone Number":"61-532779, 535999","Email":"charak.memorial@gmail.com","Website":" NA","No of Beds":" NA","Emergency Ward":"yes","Ambulance Service":"yes","ICU / NICU / Others":"both","Operation Theatre":" yes","X-Ray":"yes","Medical Staff":" ","Helping Staff":" ","Remarks":" "},"geometry":{"type":"Point","coordinates":[83.98609,28.21078]}},{"type":"Feature","properties":{"Name":"CIWEC Hospital and Research Centre","Phone Number":"61-463082,267053,","Email":"pkradministrator@ciwec-clinic.com","Website":" NA","No of Beds":"NA","Emergency Ward":"yes","Ambulance Service":"yes","ICU / NICU / Others":"NA","Operation Theatre":" NA","X-Ray":"yes","Medical Staff":"-","Helping Staff":"-","Remarks":" "},"geometry":{"type":"Point","coordinates":[83.95902,28.20924]}},{"type":"Feature","properties":{"Name":"Family Homiopathy Hospital","Phone Number":"61-432604, 9856022607","Email":"familyhospital@gmail.com","Website":" NA","No of Beds":10,"Emergency Ward":"no","Ambulance Service":"no","ICU / NICU / Others":"no","Operation Theatre":"yes","X-Ray":"yes","Medical Staff":"1 doctor","Helping Staff":9,"Remarks":" "},"geometry":{"type":"Point","coordinates":[83.99343,28.20615]}},{"type":"Feature","properties":{"Name":"Fewa City Hospital","Phone Number":"61-532685, 532686","Email":" NA","Website":"www.geocities.com/fewacity","No of Beds":"NA","Emergency Ward":"yes","Ambulance Service":"yes","ICU / NICU / Others":"both","Operation Theatre":"yes","X-Ray":"yes","Medical Staff":" ","Helping Staff":" ","Remarks":" "},"geometry":{"type":"Point","coordinates":[83.98169,28.20666]}},{"type":"Feature","properties":{"Name":"Fishtail Hospital And Research Centre","Phone Number":"61-528999, 527553","Email":"hospitalfishtail@gmail.com","Website":"www.fishtailhospital.com.np","No of Beds":100,"Emergency Ward":"yes","Ambulance Service":1,"ICU / NICU / Others":"both","Operation Theatre":"yes","X-Ray":"yes","Medical Staff":"36 doctors","Helping Staff":"100 including nurses","Remarks":" "},"geometry":{"type":"Point","coordinates":[83.99002,28.2259]}},{"type":"Feature","properties":{"Name":"Gandaki Medical college","Phone Number":"61-538595, 538598","Email":"ceo@gmc.edu.np","Website":"www.gmc.edu.np","No of Beds":"547 gen icu 20 nicu 15 pisu 5 ncu 10 sicu 9","Emergency Ward":"yes","Ambulance Service":"yes 2 (1and only icu ambulance in pkr valley)","ICU / NICU / Others":"both","Operation Theatre":"yes","X-Ray":"yes","Medical Staff":"98 doctors 320 nurse","Helping Staff":424,"Remarks":" "},"geometry":{"type":"Point","coordinates":[83.9871,28.2111]}},{"type":"Feature","properties":{"Name":"Hariyo Kharka Hospital","Phone Number":"61-520342","Email":"clinical.pmelo@kaski.nepal.inf.org","Website":"www.inf.org","No of Beds":66,"Emergency Ward":"no","Ambulance Service":"no","ICU / NICU / Others":"no","Operation Theatre":" no","X-Ray":" ","Medical Staff":"10 doctor 12 nrse","Helping Staff":89,"Remarks":" "},"geometry":{"type":"Point","coordinates":[83.9887,28.19276]}},{"type":"Feature","properties":{"Name":"Hemja Hospital and Research Center","Phone Number":"061-400055","Email":" NA","Website":" NA","No of Beds":25,"Emergency Ward":"yes","Ambulance Service":"no","ICU / NICU / Others":"no","Operation Theatre":" no","X-Ray":" ","Medical Staff":"12 doctors 7 nurses","Helping Staff":7,"Remarks":" "},"geometry":{"type":"Point","coordinates":[83.9343,28.2776]}},{"type":"Feature","properties":{"Name":"Himalaya Eye Hospital","Phone Number":"(061)-461168, 460458, 463156","Email":"heh@ntc.net.np","Website":"http://www.heh.org.np","No of Beds":51,"Emergency Ward":"yes","Ambulance Service":"no","ICU / NICU / Others":"no","Operation Theatre":" no","X-Ray":" ","Medical Staff":"5 doctors 25 opthomist","Helping Staff":70,"Remarks":" "},"geometry":{"type":"Point","coordinates":[83.97736,28.19044]}},{"type":"Feature","properties":{"Name":"Kantipur Institute of Health Science","Phone Number":"61-538364 / 530725","Email":"kdhpkr@hotmail.com","Website":"kantipurkdh.edu.np","No of Beds":"dental chair 20","Emergency Ward":"no","Ambulance Service":"no","ICU / NICU / Others":"no","Operation Theatre":" no","X-Ray":"yes","Medical Staff":"Dental Hygiene 6 and Chairside 3","Helping Staff":10,"Remarks":" "},"geometry":{"type":"Point","coordinates":[83.98487,28.21343]}},{"type":"Feature","properties":{"Name":"Kaski Sewa Hospital And Research Center PVT. LTD","Phone Number":"61-528161/528162","Email":"info@kaskisewahospital.com","Website":"www.kaskisewahospital.com","No of Beds":100,"Emergency Ward":"yes","Ambulance Service":"yes 1","ICU / NICU / Others":"both","Operation Theatre":" yes","X-Ray":"yes","Medical Staff":"27 doctor 50 nurse","Helping Staff":73,"Remarks":" "},"geometry":{"type":"Point","coordinates":[84.00081,28.2132]}},{"type":"Feature","properties":{"Name":"Lakecity Hospital & Critical Care","Phone Number":"61-533303,441000","Email":"info@lakecityhospital.org","Website":"http://www.lakecityhospital.org/","No of Beds":29,"Emergency Ward":"yes","Ambulance Service":3,"ICU / NICU / Others":"ICU, PICU","Operation Theatre":"yes(2)","X-Ray":"yes","Medical Staff":"30 doctors 66 nurses","Helping Staff":25,"Remarks":"dialysis centre, Pain relief clinic, Fistula"},"geometry":{"type":"Point","coordinates":[83.98373,28.2208]}},{"type":"Feature","properties":{"Name":"Manipal Teaching Hospital","Phone Number":"61-526416,526420","Email":"mtc@manipal.edu.np","Website":"www.manipal.edu.np","No of Beds":750,"Emergency Ward":"yes","Ambulance Service":"yes(3)","ICU / NICU / Others":"ICU,CCU, NICU","Operation Theatre":"yes","X-Ray":"yes","Medical Staff":"183 doctors 208 nurses","Helping Staff":"378 commuted staffs,85 admin staff","Remarks":" "},"geometry":{"type":"Point","coordinates":[83.99719,28.23614]}},{"type":"Feature","properties":{"Name":"Maternity Child Friendship Hospital","Phone Number":" ","Email":" NA","Website":" NA","No of Beds":25,"Emergency Ward":"yes","Ambulance Service":"yes","ICU / NICU / Others":"no","Operation Theatre":"no","X-Ray":"yes","Medical Staff":" ","Helping Staff":" ","Remarks":"maternity hospital"},"geometry":{"type":"Point","coordinates":[83.98186,28.25808]}},{"type":"Feature","properties":{"Name":"Metro City Hospital","Phone Number":"61-526531","Email":"metrocityhospital@groups.facebook.com","Website":"http://www.metrocityhospital.com","No of Beds":" NA","Emergency Ward":"yes","Ambulance Service":"yes","ICU / NICU / Others":"both","Operation Theatre":"yes","X-Ray":"yes","Medical Staff":" ","Helping Staff":" ","Remarks":" "},"geometry":{"type":"Point","coordinates":[83.98168,28.21184]}},{"type":"Feature","properties":{"Name":"Kaski Model Hospital","Phone Number":"061-527542,539803","Email":"modelhospital@yahoo.com","Website":" NA","No of Beds":37,"Emergency Ward":"yes","Ambulance Service":"yes 1","ICU / NICU / Others":"icu only","Operation Theatre":"yes (major minor)","X-Ray":"yes","Medical Staff":"16 doctors 25 nurses","Helping Staff":25,"Remarks":" "},"geometry":{"type":"Point","coordinates":[83.98671,28.22136]}},{"type":"Feature","properties":{"Name":"Namaste Hospital and Research Center","Phone Number":"061-466438,466439","Email":"namastehospital@gmail.com","Website":"http://www.namastehospital.com/","No of Beds":60,"Emergency Ward":"yes","Ambulance Service":"yes","ICU / NICU / Others":"both","Operation Theatre":"yes","X-Ray":"yes","Medical Staff":"25 doctor 55 nurses","Helping Staff":15,"Remarks":" "},"geometry":{"type":"Point","coordinates":[83.97199,28.19324]}},{"type":"Feature","properties":{"Name":"OM Hospital","Phone Number":"61-534566,534577,534007","Email":"omhosnet.wlink.com","Website":" NA","No of Beds":51,"Emergency Ward":"yes","Ambulance Service":1,"ICU / NICU / Others":"no","Operation Theatre":"2(major+minor)","X-Ray":"yes","Medical Staff":"20 doctors, 23 nurses","Helping Staff":13,"Remarks":" "},"geometry":{"type":"Point","coordinates":[83.98995,28.2228]}},{"type":"Feature","properties":{"Name":"Padhma Nursing Homes","Phone Number":"61-520159,523048","Email":"padmanurshing@gmail.com","Website":"no website","No of Beds":50,"Emergency Ward":"yes","Ambulance Service":"yes 1","ICU / NICU / Others":"no","Operation Theatre":"yes","X-Ray":" ","Medical Staff":"13 doctors 30 nurses","Helping Staff":40,"Remarks":" "},"geometry":{"type":"Point","coordinates":[83.98657,28.21962]}},{"type":"Feature","properties":{"Name":"Parkland Hospital Pvt. Ltd.","Phone Number":"61-431830,431930","Email":"parklandhospital@gmail.com","Website":"www.parklandhospitalpkr.com","No of Beds":26,"Emergency Ward":"yes","Ambulance Service":"yes","ICU / NICU / Others":"both icu 8bed nicu 10 bed","Operation Theatre":"yes","X-Ray":"yes","Medical Staff":"15 doctor 30nurse","Helping Staff":12,"Remarks":" "},"geometry":{"type":"Point","coordinates":[84.00135,28.20436]}},{"type":"Feature","properties":{"Name":"Pashchimanchal Community Hospital/shahid Memorial Hospital","Phone Number":"061-530722","Email":"pchospital2071@gmail.com","Website":"www.pch.com","No of Beds":50,"Emergency Ward":"yes","Ambulance Service":"yes","ICU / NICU / Others":"both","Operation Theatre":"yes","X-Ray":"yes","Medical Staff":"15 doctor 35 nurse","Helping Staff":16,"Remarks":" "},"geometry":{"type":"Point","coordinates":[83.98825,28.20885]}},{"type":"Feature","properties":{"Name":"Pokhara Hospital and Research Centre","Phone Number":"61-521924,528243","Email":"pkrhospital552gmail.com","Website":"no website","No of Beds":25,"Emergency Ward":"yes","Ambulance Service":"no","ICU / NICU / Others":"no","Operation Theatre":"yes","X-Ray":" ","Medical Staff":"22 doctor 8 nurses","Helping Staff":18,"Remarks":" "},"geometry":{"type":"Point","coordinates":[83.99232,28.20702]}},{"type":"Feature","properties":{"Name":"Regional Hospital Pvt. Ltd.","Phone Number":"061-53323","Email":"regionalhospital0@gmail.com","Website":" NA","No of Beds":34,"Emergency Ward":"yes","Ambulance Service":"in process","ICU / NICU / Others":"icu(4)","Operation Theatre":"yes(2)","X-Ray":"yes","Medical Staff":"15 doctors 13 nurses","Helping Staff":29,"Remarks":" "},"geometry":{"type":"Point","coordinates":[83.97537,28.21418]}},{"type":"Feature","properties":{"marker-color":"#7e7e7e","marker-size":"medium","marker-symbol":"","Name":"Sahara Hospital","Phone Number":"61-539858","Email":" NA","Website":"NA","No of Beds":55,"Emergency Ward":"yes","Ambulance Service":"yes(1)","ICU / NICU / Others":"no","Operation Theatre":"no","X-Ray":"yes","Medical Staff":"22 doctors 16 nurses","Helping Staff":7,"Remarks":" "},"geometry":{"type":"Point","coordinates":[83.98321,28.23143]}},{"type":"Feature","properties":{"marker-color":"#7e7e7e","marker-size":"medium","marker-symbol":"","Name":"Sai Archana Hospital","Phone Number":"61-541587","Email":" NA","Website":" NA","No of Beds":25,"Emergency Ward":"no","Ambulance Service":"no","ICU / NICU / Others":"no","Operation Theatre":"no","X-Ray":" NA","Medical Staff":"5 doctors 11 nurses","Helping Staff":9,"Remarks":" "},"geometry":{"type":"Point","coordinates":[83.99795,28.21896]}},{"type":"Feature","properties":{"marker-color":"#7e7e7e","marker-size":"medium","marker-symbol":"","Name":"Spark Hospital (sabhagriha)","Phone Number":"61-521408","Email":" NA","Website":"www.sparkhealth.com.np","No of Beds":15,"Emergency Ward":"no","Ambulance Service":"no","ICU / NICU / Others":"no","Operation Theatre":"NA","X-Ray":" NA","Medical Staff":"3 doctors 6 nurses","Helping Staff":14,"Remarks":" "},"geometry":{"type":"Point","coordinates":[83.98335,28.21195]}},{"type":"Feature","properties":{"Name":"Western Regional Hospital","Phone Number":"61-520066,520461/532685","Email":"wrhpkr@fewanet.com.np","Website":" NA","No of Beds":350,"Emergency Ward":"yes","Ambulance Service":"no","ICU / NICU / Others":"both","Operation Theatre":"yes","X-Ray":"yes","Medical Staff":"96 doctor 102 nurses","Helping Staff":493,"Remarks":" "},"geometry":{"type":"Point","coordinates":[83.99784,28.21268]}}]}